
[
	{ "id": "1", "title": "ГБУ ГП №180 ДЗМ", "street": "Улица Пушкина дом 1", "date": "2019 год", "coordinates": "55.772929,37.601707" },
	{ "id": "2", "title": "Московский театр \"Современник\"", "street": "Улица Дыбенко, вблизи строений 34-38", "date": "2017 год", "coordinates": "55.754608,37.621619" },
	{ "id": "3", "title": "НИИ НДХиТ", "street": "Улица Пушкина дом 1", "date": "2019 год", "coordinates": "55.761026,37.565143" },
	{ "id": "4", "title": "Агентство гражданской защиты ВАО Москвы", "street": "Улица Дыбенко, вблизи строений 34-38", "date": "2017 год", "coordinates": "55.735658,37.592437" },
	{ "id": "5", "title": "Агентство гражданской защиты ЗАО Москвы", "street": "Улица Пушкина дом 1", "date": "2019 год", "coordinates": "55.710371,37.582653" },
	{ "id": "6", "title": "Агентство гражданской защиты Зеленоградского АО Москвы", "street": "Улица Дыбенко, вблизи строений 34-38", "date": "2017 год", "coordinates": "55.758550, 37.655901" },
	{ "id": "7", "title": "Агентство гражданской защиты САО Москвы", "street": "Улица Пушкина дом 1", "date": "2019 год", "coordinates": "55.757174,37.736023" },
	{ "id": "8", "title": "Агентство гражданской защиты СЗАО Москвы", "street": "Улица Дыбенко, вблизи строений 34-38", "date": "2017 год", "coordinates": "55.718822,37.668389" },
	{ "id": "9", "title": "Агентство гражданской защиты ЦАО Москвы", "street": "Улица Пушкина дом 1", "date": "2019 год", "coordinates": "55.786438,37.621721" },
	{ "id": "10", "title": "Проект 10", "street": "Улица Пушкина дом 1", "date": "2019 год", "coordinates": "55.746912,37.594231" },
	{ "id": "11", "title": "Проект 11", "street": "Улица Дыбенко, вблизи строений 34-38", "date": "2017 год", "coordinates": "55.768829,37.574343" },
	{ "id": "12", "title": "Проект 12", "street": "Улица Пушкина дом 1", "date": "2019 год", "coordinates": "55.745791,37.589792" },
	{ "id": "13", "title": "Проект 13", "street": "Улица Дыбенко, вблизи строений 34-38", "date": "2017 год", "coordinates": "55.788566,37.663607" },
	{ "id": "14", "title": "Проект 14", "street": "Улица Пушкина дом 1", "date": "2019 год", "coordinates": "55.738431,37.636484" },
	{ "id": "15", "title": "Проект 15", "street": "Улица Дыбенко, вблизи строений 34-38", "date": "2017 год", "coordinates": "55.737269,37.587389" },
	{ "id": "16", "title": "Проект 16", "street": "Улица Пушкина дом 1", "date": "2019 год", "coordinates": "55.736301,37.624811" },
	{ "id": "17", "title": "Проект 17", "street": "Улица Дыбенко, вблизи строений 34-38", "date": "2017 год", "coordinates": "55.749083,37.613825" }
]